City_ID,City,Cloudiness,Country,Date,Humidity,Lat,Lng,Max Temp,Wind Speed
0,yellowknife,90,CA,1553666169,79,62.45,-114.38,23.0,13.87
1,portobelo,20,PA,1553666098,74,9.55,-79.65,78.8,6.93
2,miles city,1,US,1553666228,61,46.41,-105.84,48.2,4.7
3,rikitea,88,PF,1553666157,96,-23.12,-134.97,80.18,14.38
4,saint-pierre,0,FR,1553665924,86,48.95,4.24,39.2,5.82
5,fortuna,0,ES,1553666180,46,38.18,-1.13,50.0,4.7
6,ponta delgada,20,PT,1553666184,67,37.73,-25.67,57.2,23.04
7,presidente medici,88,BR,1553666285,96,-11.18,-61.9,72.71,2.08
8,mataura,88,NZ,1553665805,88,-46.19,168.86,52.0,8.99
9,broken hill,0,AU,1553662800,23,-31.97,141.45,73.4,9.17
10,busselton,0,AU,1553666120,22,-33.64,115.35,82.0,16.51
11,port hardy,40,CA,1553662800,93,50.7,-127.42,42.8,3.36
12,gushi,80,CN,1553666254,83,32.17,115.65,63.44,3.76
13,wattegama,0,LK,1553666287,50,7.35,80.68,88.73,3.65
14,saskylakh,88,RU,1553666287,88,71.97,114.09,23.93,8.01
15,hermanus,0,ZA,1553665542,82,-34.42,19.24,64.0,2.64
16,saint-philippe,1,CA,1553666204,58,45.36,-73.48,27.0,8.05
17,rocha,0,UY,1553666289,87,-34.48,-54.34,55.88,6.22
18,vaini,20,IN,1553662800,58,15.34,74.49,84.2,5.82
19,paracuru,20,BR,1553665691,94,-3.41,-39.03,77.0,2.64
20,ponta do sol,88,BR,1553666290,81,-20.63,-46.0,68.03,3.42
21,malinovoye ozero,36,RU,1553666290,77,51.68,79.77,45.44,6.67
22,miri,0,NG,1553666231,42,10.31,9.75,62.9,4.99
23,tavda,0,RU,1553666291,93,58.04,65.27,34.01,8.34
24,arlit,76,NE,1553666291,31,18.74,7.39,69.11,4.43
25,bulgan,0,MN,1553666292,26,48.81,103.53,31.4,4.09
26,port elizabeth,1,US,1553666129,86,39.31,-74.98,37.99,9.46
27,hithadhoo,44,MV,1553666249,100,-0.6,73.08,82.25,1.63
28,hammerfest,75,NO,1553664000,58,70.66,23.68,26.6,13.87
29,kalmunai,0,LK,1553666293,64,7.42,81.82,89.18,5.32
30,vila velha,20,BR,1553665691,94,-3.71,-38.6,77.0,5.66
31,port alfred,12,ZA,1553666293,89,-33.59,26.89,67.22,14.5
32,thompson,75,CA,1553662800,69,55.74,-97.86,37.4,3.36
33,jamestown,8,AU,1553666159,73,-33.21,138.6,67.76,4.43
34,nioro,0,GM,1553666260,59,13.79,-15.05,66.68,9.57
35,new norfolk,0,AU,1553666114,32,-42.78,147.06,68.0,13.87
36,kloulklubed,75,PW,1553662200,79,7.04,134.26,84.2,12.75
37,butaritari,88,KI,1553666295,100,3.07,172.79,83.69,17.52
38,kavieng,44,PG,1553666296,98,-2.57,150.8,85.58,8.46
39,yerbogachen,64,RU,1553666122,67,61.28,108.01,28.88,4.76
40,hobart,0,AU,1553666114,32,-42.88,147.33,68.0,13.87
41,cockburn town,92,TC,1553666297,100,21.46,-71.14,76.13,10.13
42,tuktoyaktuk,90,CA,1553662800,92,69.44,-133.03,23.0,14.99
43,saldanha,0,PT,1553666175,49,41.42,-6.55,39.95,11.7
44,lavrentiya,88,RU,1553666297,89,65.58,-170.99,32.66,32.73
45,kapaa,90,US,1553666003,94,22.08,-159.32,69.8,10.29
46,kamien pomorski,20,PL,1553666171,100,53.97,14.77,30.99,2.24
47,ushuaia,75,AR,1553662800,76,-54.81,-68.31,51.8,3.36
48,victoria,75,BN,1553662800,70,5.28,115.24,89.6,3.36
49,mantua,0,IT,1553666283,60,45.16,10.79,48.99,8.05
50,kabo,76,CF,1553666300,67,7.69,18.62,79.28,10.02
51,vestmannaeyjar,92,IS,1553666300,95,63.44,-20.27,42.29,30.82
52,hasaki,20,JP,1553664600,45,35.73,140.83,66.2,10.29
53,cidreira,36,BR,1553666137,90,-30.17,-50.22,64.16,5.66
54,sibolga,88,ID,1553666247,93,1.74,98.78,76.31,2.19
55,padang,75,ID,1553662800,83,-0.92,100.36,82.4,4.7
56,barrow,0,AR,1553666145,91,-38.31,-60.23,45.08,6.11
57,kodiak,1,US,1553666007,45,39.95,-94.76,51.01,13.87
58,iqaluit,20,CA,1553665921,69,63.75,-68.52,-9.01,6.93
59,souillac,0,FR,1553666049,78,45.6,-0.6,41.0,9.17
60,lebu,0,ET,1553662800,67,8.96,38.73,62.6,3.36
61,kushiro,75,JP,1553662800,41,43.11,144.15,39.2,16.11
62,najran,5,SA,1553662800,49,17.54,44.22,71.6,4.7
63,atambua,68,ID,1553666303,100,-9.11,124.89,81.98,8.57
64,khatanga,92,RU,1553666303,94,71.98,102.47,30.95,12.71
65,dikson,80,RU,1553666258,98,73.51,80.55,31.49,34.96
66,albany,1,US,1553666111,45,42.65,-73.75,28.99,4.7
67,vilyuysk,0,RU,1553666304,53,63.75,121.63,17.54,6.67
68,sao filipe,80,CV,1553666293,100,14.9,-24.5,68.75,10.69
69,alta floresta,76,BR,1553666304,96,-9.87,-56.08,74.06,2.19
70,husavik,80,CA,1553666127,99,50.56,-96.99,34.0,8.99
71,chokurdakh,8,RU,1553666276,74,70.62,147.9,0.26,17.96
72,severo-kurilsk,88,RU,1553666139,95,50.68,156.12,29.96,14.05
73,san jose,20,PH,1553666308,66,15.79,120.99,82.16,6.78
74,punta arenas,40,CL,1553665945,57,-53.16,-70.91,51.8,25.28
75,east london,0,ZA,1553663940,77,-33.02,27.91,64.4,4.7
76,talnakh,88,RU,1553666245,91,69.49,88.39,27.44,22.55
77,bagnols-sur-ceze,0,FR,1553666295,52,44.16,4.62,48.0,18.34
78,luwuk,24,ID,1553666309,100,-0.95,122.79,81.08,2.42
79,paita,24,PE,1553666301,83,-5.09,-81.11,71.45,3.2
80,mahibadhoo,0,MV,1553666174,100,3.78,72.97,84.5,9.69
81,kruisfontein,48,ZA,1553666228,82,-34.0,24.73,61.28,11.59
82,turbat,48,PK,1553666310,26,26.0,63.05,89.0,2.86
83,atherton,90,GB,1553666305,81,53.52,-2.49,46.99,1.12
84,sinegorye,76,RU,1553666311,71,62.09,150.53,6.02,6.67
85,chulman,56,RU,1553666311,47,56.84,124.9,13.67,8.23
86,martapura,40,ID,1553664600,70,-3.41,114.85,87.8,6.93
87,georgetown,0,GY,1553662800,94,6.8,-58.16,71.6,2.24
88,kahului,20,US,1553666078,60,20.89,-156.47,75.2,12.75
89,touros,40,BR,1553662800,100,-5.2,-35.46,75.2,3.36
90,jertih,75,MY,1553662800,62,5.74,102.5,89.6,8.05
91,berlevag,0,NO,1553662200,62,70.86,29.09,23.0,13.87
92,maniitsoq,0,GL,1553666315,72,65.42,-52.9,5.57,5.99
93,codrington,90,AU,1553666273,88,-28.95,153.24,69.8,7.0
94,hilo,90,US,1553666141,64,19.71,-155.08,73.4,5.82
95,nanortalik,64,GL,1553666159,100,60.14,-45.24,23.48,14.83
96,sun valley,5,US,1553662260,74,43.7,-114.35,37.4,9.17
97,avarua,32,CK,1553664600,88,-21.21,-159.78,80.6,2.24
98,viedma,0,AR,1553666317,86,-40.81,-62.99,49.13,9.35
99,gat,0,SN,1553664600,93,14.69,-16.54,64.4,12.75
100,petropavlovsk-kamchatskiy,0,RU,1553664600,71,53.05,158.65,32.0,8.95
101,praia da vitoria,40,PT,1553665659,76,38.73,-27.07,57.2,15.5
102,marsh harbour,48,BS,1553666279,100,26.54,-77.06,74.42,6.22
103,arraial do cabo,8,BR,1553666115,99,-22.97,-42.02,75.68,2.98
104,bethel,1,US,1553662560,88,60.79,-161.76,35.6,10.29
105,narsaq,32,GL,1553662200,48,60.91,-46.05,17.6,11.41
106,gayeri,76,BF,1553666320,68,12.65,0.49,76.94,4.99
107,bredasdorp,20,ZA,1553665542,87,-34.53,20.04,64.0,1.12
108,vanimo,8,PG,1553666172,100,-2.67,141.3,83.06,15.17
109,roswell,1,US,1553666036,55,33.39,-104.52,64.4,13.87
110,hit,0,IQ,1553666252,77,33.64,42.83,56.96,5.32
111,palana,80,RU,1553666321,62,59.08,159.95,12.95,6.11
112,doka,0,SD,1553666322,23,13.52,35.76,78.02,8.9
113,kudat,75,MY,1553662800,74,6.89,116.84,86.0,9.17
114,dryden,90,CA,1553662800,69,49.79,-92.84,37.4,13.87
115,skagen,0,SE,1553666105,86,58.6,13.44,41.0,5.82
116,mnogovershinnyy,64,RU,1553666323,54,53.94,139.92,18.53,5.77
117,pangnirtung,24,CA,1553666177,62,66.15,-65.72,-8.39,2.3
118,ugoofaaru,0,MV,1553666324,100,5.67,73.0,84.41,4.65
119,ozieri,75,IT,1553666284,76,40.59,9.0,51.8,16.11
120,zeya,44,RU,1553666325,40,53.74,127.27,20.24,7.23
121,araouane,8,ML,1553666325,34,18.9,-3.53,82.07,10.69
122,cherskiy,88,RU,1553666308,74,68.75,161.3,9.62,13.15
123,jian,0,IN,1553666326,53,25.65,87.89,84.14,4.43
124,beira,0,ES,1553666322,81,43.2,-8.36,50.0,8.05
125,colares,0,PT,1553666222,76,38.8,-9.45,57.99,5.82
126,coihaique,0,CL,1553662800,86,-45.58,-72.07,41.0,1.86
127,castro,0,CL,1553662800,81,-42.48,-73.76,46.4,5.82
128,rorvik,75,NO,1553666102,87,64.86,11.24,42.8,10.29
129,bluff,92,AU,1553666166,44,-23.58,149.07,87.2,11.81
130,belo oriente,56,BR,1553666329,94,-19.22,-42.48,69.56,3.53
131,kita,20,JP,1553666121,37,35.76,139.74,68.0,19.46
132,uspenka,92,UA,1553666330,100,48.39,39.16,42.38,4.43
133,kudahuvadhoo,8,MV,1553666247,100,2.67,72.89,84.68,10.47
134,atuona,20,PF,1553666146,99,-9.8,-139.03,82.61,14.16
135,upernavik,44,GL,1553666331,100,72.79,-56.15,3.32,6.44
136,santa isabel do rio negro,12,BR,1553666331,91,-0.41,-65.02,78.38,2.53
137,yining,92,CN,1553666331,98,29.04,114.56,65.06,4.21
138,pevek,92,RU,1553666293,75,69.7,170.27,25.91,2.86
139,khasan,36,RU,1553666332,69,42.43,130.64,38.33,7.34
140,faanui,8,PF,1553666152,100,-16.48,-151.75,84.41,4.76
141,polunochnoye,0,RU,1553666333,80,60.87,60.43,37.25,7.67
142,listvyanskiy,76,RU,1553666333,94,54.44,83.49,32.75,6.89
143,roma,40,IT,1553666104,53,41.89,12.48,55.0,2.24
144,cap malheureux,75,MU,1553666047,74,-19.98,57.61,86.0,6.93
145,la carolina,0,ES,1553666335,45,38.27,-3.62,41.75,10.69
146,norman wells,20,CA,1553662800,59,65.28,-126.83,35.6,5.82
147,bol,0,TD,1553666335,18,13.47,14.72,74.78,14.27
148,sioux lookout,90,CA,1553662800,64,50.1,-91.92,37.4,8.05
149,gamboma,32,CG,1553666336,91,-1.87,15.88,72.71,6.22
150,faya,0,SA,1553662800,82,18.39,42.45,64.4,13.87
151,belmonte,0,PT,1553665527,44,40.36,-7.35,44.01,11.99
152,qaanaaq,48,GL,1553666158,87,77.48,-69.36,-10.91,10.69
153,kawalu,68,ID,1553666337,99,-7.38,108.21,74.69,2.19
154,ilulissat,68,GL,1553662200,77,69.22,-51.1,1.4,4.7
155,namibe,56,AO,1553666338,100,-15.19,12.15,76.94,6.22
156,tara,20,JP,1553666299,68,33.0,130.15,70.0,16.11
157,temirtau,90,KZ,1553664600,93,50.05,72.96,39.2,15.66
158,clyde river,40,CA,1553662800,62,70.47,-68.59,-13.01,3.36
159,guerrero negro,76,MX,1553666148,99,27.97,-114.04,56.06,6.67
160,aklavik,75,CA,1553662800,74,68.22,-135.01,33.8,3.36
161,batagay-alyta,0,RU,1553666339,71,67.8,130.41,12.77,4.21
162,denpasar,20,ID,1553664600,70,-8.65,115.22,87.8,10.29
163,tura,0,IN,1553666340,73,25.52,90.21,76.76,2.75
164,ojinaga,40,US,1553665531,53,29.56,-104.41,71.6,13.87
165,victor harbor,20,AU,1553666315,46,-35.55,138.62,75.0,12.75
166,nemuro,40,JP,1553662800,96,43.32,145.57,32.0,14.99
167,grindavik,75,IS,1553665482,81,63.84,-22.43,44.01,29.97
168,plettenberg bay,56,ZA,1553666342,99,-34.05,23.37,63.8,12.15
169,sinnamary,92,GF,1553666079,92,5.38,-52.96,80.18,12.03
170,jucurutu,64,BR,1553666342,98,-6.03,-37.02,71.27,3.31
171,puerto ayora,0,EC,1553666247,100,-0.74,-90.35,76.58,5.55
172,provideniya,75,RU,1553662800,86,64.42,-173.23,33.8,29.08
173,ahipara,92,NZ,1553666204,79,-35.17,173.16,69.92,14.61
174,cape town,0,ZA,1553665991,82,-33.93,18.42,64.0,2.24
175,torbay,90,CA,1553666324,79,47.66,-52.73,25.0,5.82
176,lisakovsk,0,KZ,1553666344,100,52.55,62.49,34.91,4.54
177,sitka,8,US,1553665600,76,37.17,-99.65,53.01,15.01
178,nouadhibou,24,MR,1553662800,88,20.93,-17.03,64.4,3.36
179,luderitz,24,NA,1553666345,87,-26.65,15.16,60.2,9.13
180,airai,80,TL,1553666121,87,-8.93,125.41,77.03,2.3
181,shenjiamen,88,CN,1553666303,95,29.96,122.3,57.14,13.49
182,ballina,88,IE,1553666291,83,54.11,-9.15,48.99,1.99
183,huangmei,92,CN,1553666346,100,30.1,115.95,61.28,3.53
184,mingshui,68,CN,1553666347,83,22.81,109.89,78.11,11.48
185,tubuala,20,PA,1553664674,74,9.52,-79.03,78.8,6.93
186,pankrushikha,92,RU,1553666348,99,53.83,80.35,33.2,8.68
187,yumen,12,CN,1553666348,52,40.29,97.04,48.05,21.32
188,leningradskiy,76,RU,1553666204,83,69.38,178.42,29.42,16.4
189,mehamn,0,NO,1553662200,62,71.03,27.85,26.6,13.87
190,pangkalanbuun,64,ID,1553666349,81,-2.68,111.62,86.66,3.87
191,lagoa,0,PT,1553666302,55,37.14,-8.45,60.8,27.51
192,esperance,20,TT,1553666107,94,10.24,-61.45,75.2,4.65
193,nikolskoye,0,RU,1553666136,73,59.7,30.79,28.0,11.18
194,geraldton,40,CA,1553662800,58,49.72,-86.95,28.4,11.41
195,mehran,20,IR,1553664600,75,33.12,46.17,46.4,4.7
196,tasiilaq,48,GL,1553662200,41,65.61,-37.64,24.8,13.87
197,hami,0,CN,1553666352,59,42.84,93.51,57.05,6.89
198,sulangan,76,PH,1553666352,97,11.14,123.72,82.34,13.71
199,torbat-e jam,0,IR,1553666352,72,35.24,60.63,62.54,9.01
200,sindor,80,RU,1553666353,90,62.87,51.9,29.33,3.53
201,taoudenni,44,ML,1553666353,89,22.68,-3.98,59.48,2.98
202,paris,40,FR,1553666305,86,48.86,2.35,41.0,5.82
203,mathbaria,0,BD,1553666337,58,22.29,89.96,87.65,4.43
204,nogliki,80,RU,1553666354,95,51.8,143.14,25.73,15.84
205,mokshan,92,RU,1553664748,99,53.44,44.61,39.99,9.8
206,kaitangata,32,NZ,1553666094,61,-46.28,169.85,55.99,8.01
207,kilindoni,68,TZ,1553666355,96,-7.91,39.67,85.4,2.08
208,storforshei,75,NO,1553666304,92,66.4,14.52,34.0,3.65
209,roald,75,NO,1553666103,93,62.58,6.12,41.0,16.11
210,vao,0,EE,1553666356,82,59.1,26.19,24.83,5.66
211,halifax,5,CA,1553666164,62,44.65,-63.58,24.01,9.17
212,chimbote,8,PE,1553666357,95,-9.08,-78.59,66.23,4.88
213,eskisehir,0,TR,1553662200,60,39.78,30.52,39.2,11.41
214,mar del plata,0,AR,1553666120,60,-46.43,-67.52,55.07,8.68
215,birnin kebbi,24,NG,1553666358,31,12.45,4.2,68.66,9.8
216,cortez,40,US,1553666326,61,37.35,-108.58,48.2,3.36
217,gorontalo,48,ID,1553666205,90,0.54,123.06,79.28,2.42
218,atocha,40,EC,1553665660,87,-1.22,-78.6,51.01,6.93
219,champerico,40,MX,1553661900,64,16.38,-93.6,75.2,17.22
220,awbari,0,LY,1553666360,44,26.59,12.77,53.36,7.34
221,shakiso,88,ET,1553666360,85,5.77,38.9,65.51,3.2
222,katsuura,75,JP,1553664875,55,33.93,134.5,68.0,12.75
223,nova olimpia,56,BR,1553666126,95,-14.8,-57.29,73.79,4.09
224,zhangye,8,CN,1553666361,89,38.94,100.46,49.13,3.2
225,luanda,75,AO,1553662800,88,-8.83,13.24,75.2,3.36
226,naze,56,NG,1553666276,92,5.43,7.07,75.14,3.98
227,carnarvon,24,ZA,1553666159,60,-30.97,22.13,53.36,2.98
228,tromso,90,NO,1553666137,92,69.65,18.96,30.2,34.45
229,korem,8,ET,1553666362,68,12.51,39.52,68.75,3.2
230,mlonggo,40,ID,1553664600,66,-6.53,110.7,89.6,10.29
231,mahebourg,75,MU,1553666346,74,-20.41,57.7,86.0,6.93
232,tuy hoa,64,VN,1553666364,76,13.08,109.3,81.98,7.34
233,necochea,0,AR,1553665950,92,-38.55,-58.74,50.0,3.09
234,farafangana,12,MG,1553666364,90,-22.82,47.83,82.61,8.68
235,gastonia,1,US,1553666231,55,35.26,-81.19,46.4,8.01
236,nieuw amsterdam,40,SR,1553665811,94,5.88,-55.08,75.99,3.36
237,ostrovnoy,0,RU,1553666365,82,68.05,39.51,18.17,13.71
238,maralal,32,KE,1553666203,79,1.1,36.7,69.2,3.65
239,savannah bight,92,HN,1553666366,96,16.45,-85.85,80.36,11.25
240,kendari,68,ID,1553666366,83,-3.99,122.52,84.14,3.76
241,gizo,20,IL,1553666358,76,31.8,34.94,61.0,8.05
242,kibungo,40,RW,1553665927,82,-2.14,30.55,64.4,1.12
243,porbandar,0,IN,1553664600,21,21.64,69.61,93.2,11.41
244,surt,32,LY,1553666278,80,31.21,16.59,59.93,8.46
245,klaksvik,36,FO,1553664000,93,62.23,-6.59,42.8,6.93
246,bend,1,US,1553666356,56,44.06,-121.32,44.6,5.82
247,kemerovo,0,RU,1553664600,51,55.36,86.09,35.6,4.47
248,rajaldesar,0,IN,1553666369,21,28.03,74.47,90.98,4.76
249,pontianak,75,ID,1553664600,59,-0.02,109.34,91.4,4.76
250,gravdal,75,NO,1553666227,100,59.79,5.78,43.0,1.12
251,dunedin,0,NZ,1553666001,50,-45.87,170.5,60.01,8.01
252,tiarei,75,PF,1553665941,74,-17.53,-149.33,84.2,3.36
253,port-gentil,75,GA,1553662800,94,-0.72,8.78,78.8,3.36
254,salym,76,RU,1553666371,75,60.06,71.48,35.81,9.01
255,alice springs,0,AU,1553664600,23,-23.7,133.88,82.4,12.75
256,parkes,0,AU,1553665796,30,-33.14,148.18,81.0,10.8
257,vostok,76,RU,1553666194,56,46.45,135.83,23.48,6.11
258,harper,1,US,1553666119,71,30.3,-99.24,63.0,9.01
259,avera,1,US,1553666137,81,33.19,-82.53,51.8,5.82
260,sovetskiy,36,RU,1553666372,94,56.76,48.47,33.2,10.8
261,quatre cocos,75,MU,1553666047,74,-20.21,57.76,86.0,6.93
262,sur,88,OM,1553666333,82,22.57,59.53,77.3,2.64
263,walvis bay,90,NA,1553662931,87,-22.95,14.51,61.0,5.82
264,goderich,24,CA,1553666134,70,43.74,-81.71,27.0,4.0
265,hirado,20,JP,1553665944,52,33.32,129.49,66.2,12.75
266,kidal,44,ML,1553666374,28,18.44,1.41,77.66,11.25
267,pauini,24,BR,1553666374,94,-7.71,-67.0,76.76,4.32
268,pitimbu,56,BR,1553666142,100,-7.47,-34.81,78.92,4.65
269,longyearbyen,75,NO,1553662200,62,78.22,15.63,21.2,19.46
270,bubaque,0,GW,1553666125,100,11.28,-15.83,75.68,14.27
271,salinopolis,88,BR,1553666205,100,-0.61,-47.36,79.01,7.11
272,kamenka,92,RU,1553664748,99,53.19,44.05,39.99,8.23
273,tortoli,40,IT,1553665791,93,39.93,9.66,50.0,35.57
274,bay roberts,90,CA,1553666324,79,47.58,-53.28,25.0,5.82
275,moncton,5,CA,1553665804,52,46.1,-64.8,19.99,2.24
276,huarmey,8,PE,1553666377,89,-10.07,-78.15,61.46,3.09
277,vardo,1,US,1553666161,86,39.62,-77.74,33.8,3.2
278,conceicao do mato dentro,92,BR,1553666377,92,-19.04,-43.42,66.23,2.64
279,barda,88,RU,1553666377,83,56.93,55.59,35.45,9.8
280,tieli,0,CN,1553666378,36,46.98,128.05,35.27,11.36
281,mier,88,IT,1553666355,72,46.13,12.19,45.0,3.36
282,noumea,75,NC,1553664600,65,-22.28,166.46,82.4,17.22
283,puerto colombia,0,CO,1553665566,85,10.99,-74.96,78.01,11.01
284,mpika,32,ZM,1553666379,83,-11.84,31.4,68.48,6.78
285,innisfail,90,CA,1553666116,98,52.02,-113.95,33.8,6.93
286,cherdyn,8,RU,1553666380,80,60.4,56.48,32.03,7.0
287,magistralnyy,76,RU,1553666180,61,56.17,107.45,27.35,5.44
288,lorengau,20,PG,1553666226,100,-2.02,147.27,82.16,8.79
289,arauca,0,VE,1553666151,63,7.08,-70.76,79.1,3.2
290,luganville,36,VU,1553666381,100,-15.51,167.18,81.98,13.04
291,dunkirk,0,FR,1553666302,87,51.03,2.38,46.0,2.24
292,bambous virieux,75,MU,1553666047,74,-20.34,57.76,86.0,6.93
293,egvekinot,76,RU,1553666154,87,66.32,-179.17,26.27,13.71
294,chapais,20,CA,1553662800,55,49.78,-74.86,6.8,5.82
295,maldonado,75,UY,1553662800,77,-34.91,-54.96,60.8,3.36
296,la cruz,20,MX,1553666118,95,23.92,-106.89,62.01,1.41
297,morant bay,20,JM,1553662800,65,17.88,-76.41,77.0,4.7
298,sawtell,90,AU,1553666305,77,-30.38,153.1,73.4,8.05
299,seoul,75,KR,1553665200,48,37.57,126.98,62.6,10.29
300,wewak,8,PG,1553666384,75,-3.55,143.63,85.49,4.99
301,anloga,20,GH,1553662800,88,5.79,0.9,80.6,2.24
302,cerinza,12,CO,1553666384,86,5.96,-72.95,50.66,1.97
303,acapulco,5,MX,1553661720,78,16.86,-99.88,77.0,4.7
304,tiksi,0,RU,1553666131,70,71.64,128.87,9.08,4.21
305,tessaoua,0,NE,1553666385,24,13.76,7.99,69.83,11.48
306,terney,20,RU,1553666386,76,45.05,136.61,33.38,15.28
307,icatu,20,BR,1553662800,94,-2.77,-44.05,77.0,2.24
308,katobu,32,ID,1553666386,78,-4.94,122.53,88.46,2.98
309,zhenlai,36,CN,1553666035,82,45.84,123.2,42.01,9.69
310,camacha,40,PT,1553664600,77,33.08,-16.33,62.6,16.11
311,zhurivka,90,UA,1553664600,90,50.5,31.77,32.0,4.47
312,vila franca do campo,20,PT,1553666364,67,37.72,-25.43,57.2,23.04
313,thinadhoo,64,MV,1553666143,100,0.53,72.93,83.78,4.32
314,the valley,40,AI,1553665577,78,18.22,-63.06,77.0,10.29
315,portland,1,US,1553666303,57,45.52,-122.67,48.99,3.76
316,flinders,40,AU,1553666106,60,-34.58,150.85,73.0,10.29
317,pandan,80,PH,1553666389,96,11.72,122.09,80.99,19.64
318,tagusao,76,PH,1553666389,80,9.19,117.81,83.87,6.11
319,longyan,44,CN,1553666390,68,25.1,117.03,74.33,2.86
320,lompoc,75,US,1553666213,93,34.64,-120.46,55.4,4.7
321,vestmanna,48,FO,1553664000,93,62.16,-7.17,42.8,6.93
322,salcia tudor,0,RO,1553666391,56,45.37,27.5,41.66,10.02
323,tignere,24,CM,1553666392,37,7.37,12.65,65.96,5.55
324,wakkanai,75,JP,1553662800,59,45.41,141.67,33.8,19.46
325,kumano,0,JP,1553662800,27,34.34,132.59,69.8,10.29
326,mancora,32,PE,1553666393,89,-4.1,-81.05,72.98,1.74
327,sobolevo,24,RU,1553666393,74,54.43,31.9,26.81,7.9
328,adrar,40,DZ,1553662800,87,27.87,-0.29,59.0,11.41
329,komsomolskiy,88,RU,1553666394,95,67.55,63.78,27.44,19.86
330,grand gaube,75,MU,1553666047,74,-20.01,57.66,86.0,6.93
331,cururupu,44,BR,1553666395,97,-1.82,-44.87,73.25,2.64
332,bathsheba,40,BB,1553662800,78,13.22,-59.52,78.8,19.46
333,belaya gora,56,RU,1553666395,68,68.54,146.19,2.06,10.25
334,san quintin,0,PH,1553666396,39,17.54,120.52,88.28,8.12
335,college,90,US,1553666316,93,64.86,-147.8,42.8,7.34
336,kaa-khem,0,RU,1553666396,61,51.7,94.56,36.89,3.98
337,west wendover,1,US,1553662560,70,40.74,-114.07,46.4,4.7
338,opuwo,80,NA,1553666397,77,-18.06,13.84,61.91,3.2
339,qaqortoq,32,GL,1553662200,48,60.72,-46.03,17.6,11.41
340,strehaia,0,RO,1553665686,86,44.62,23.2,43.0,5.82
341,ribeira grande,0,PT,1553666398,100,38.52,-28.7,59.12,10.47
342,erenhot,0,CN,1553666314,39,43.65,111.97,38.51,6.89
343,chifeng,76,CN,1553666293,59,42.27,118.96,34.37,9.24
344,kavaratti,0,IN,1553666268,100,10.57,72.64,83.78,6.33
345,inhambane,20,MZ,1553662800,69,-23.87,35.38,77.0,6.93
346,port blair,12,IN,1553666399,100,11.67,92.75,84.32,6.89
347,honningsvag,64,NO,1553662200,68,70.98,25.97,26.6,23.04
348,arona,0,IT,1553666163,64,45.76,8.56,45.0,6.93
349,bani walid,12,LY,1553666421,66,31.76,14.0,51.47,5.77
350,aquiraz,20,BR,1553666291,94,-3.9,-38.39,77.0,3.09
351,beringovskiy,36,RU,1553666160,89,63.05,179.32,29.33,25.68
352,zhigansk,0,RU,1553666313,55,66.77,123.37,12.05,6.33
353,novobirilyussy,0,RU,1553666422,83,56.95,90.69,35.99,6.44
354,ceres,64,AR,1553666423,79,-29.88,-61.95,60.2,7.23
355,terenos,0,BR,1553662800,69,-20.44,-54.87,75.2,8.05
356,latung,76,ID,1553666424,90,-8.45,120.42,79.1,3.76
357,roebourne,36,AU,1553666424,93,-20.77,117.15,85.4,6.78
358,ancud,0,CL,1553662800,81,-41.87,-73.83,46.4,5.82
359,sola,90,NO,1553666105,100,58.89,5.65,43.0,6.93
360,kathu,0,ZA,1553666424,61,-27.7,23.05,66.0,3.09
361,rongcheng,0,CN,1553666135,62,37.16,122.42,57.0,1.99
362,deputatskiy,0,RU,1553666426,74,69.3,139.9,8.72,3.98
363,havoysund,75,NO,1553664000,58,71.0,24.66,26.6,13.87
364,udachnyy,88,RU,1553666427,78,66.42,112.4,25.82,4.54
365,tunceli,75,TR,1553664240,75,39.11,39.55,45.0,2.75
366,yar-sale,80,RU,1553666428,95,66.83,70.83,33.83,19.75
367,wexford,1,US,1553666427,42,40.63,-80.06,32.0,5.82
368,antofagasta,20,CL,1553662800,82,-23.65,-70.4,62.6,4.7
369,punta alta,0,AR,1553662800,68,-27.46,-55.82,64.4,6.93
370,arcachon,0,FR,1553665864,81,44.65,-1.18,39.2,8.05
371,sibay,0,RU,1553666430,94,52.72,58.67,30.05,5.66
372,coquimbo,90,CL,1553662800,93,-29.95,-71.34,55.4,1.12
373,mananjary,12,MG,1553666430,81,-19.16,46.8,71.81,3.87
374,aqtobe,0,KZ,1553664600,64,50.28,57.21,39.2,2.24
375,axim,8,GH,1553666302,100,4.87,-2.24,81.98,6.55
376,ribas do rio pardo,24,BR,1553666343,67,-20.45,-53.76,73.88,9.01
377,canton,1,US,1553666428,63,40.8,-81.38,30.2,3.09
378,hyeres,0,FR,1553666398,86,43.12,6.14,43.0,3.42
379,dongying,12,CN,1553666432,39,37.43,118.67,63.53,16.96
380,port lincoln,68,AU,1553666433,81,-34.72,135.86,67.58,4.65
381,thai binh,75,VN,1553664600,83,20.45,106.33,77.0,5.82
382,lasa,40,CY,1553665573,82,34.92,32.53,57.2,4.7
383,banda aceh,48,ID,1553666434,97,5.56,95.32,81.08,0.29
384,verkhnyaya inta,88,RU,1553666434,77,65.99,60.32,31.22,9.24
385,fairbanks,90,US,1553666408,93,64.84,-147.72,41.0,7.34
386,manicore,92,BR,1553666435,95,-5.81,-61.3,75.41,1.63
387,bozhou,80,CN,1553666436,71,33.86,115.78,66.77,5.21
388,turukhansk,48,RU,1553666247,93,65.8,87.96,26.36,20.54
389,kipini,20,KE,1553662560,83,-2.53,40.53,80.6,4.99
390,monte carmelo,68,BR,1553666437,91,-18.73,-47.5,67.85,2.86
391,methoni,48,GR,1553666148,87,36.82,21.7,55.99,4.7
392,ola,76,RU,1553666438,100,59.58,151.3,21.5,11.48
393,mayna,0,RU,1553666438,46,53.0,91.49,37.7,1.74
394,natal,40,BR,1553662800,88,-5.81,-35.21,77.0,3.36
395,wanning,75,AT,1553666409,86,48.64,13.53,37.99,8.05
396,mompos,20,CO,1553666439,89,9.24,-74.43,77.84,2.64
397,hofn,80,IS,1553666190,99,64.25,-15.21,40.94,27.81
398,cassia,75,US,1553666427,93,28.89,-81.47,64.0,5.82
399,shaping,88,CN,1553666441,48,29.23,103.26,60.92,2.42
400,fort nelson,40,CA,1553662800,64,58.81,-122.69,37.4,8.05
401,samarai,12,PG,1553666377,98,-10.62,150.67,83.87,12.93
402,saint-joseph,0,FR,1553666407,55,43.56,6.97,46.4,4.7
403,tevaitoa,24,PF,1553666442,100,-16.78,-151.5,83.6,3.87
404,maragheh,75,IR,1553662800,86,37.39,46.24,41.0,4.7
405,namatanai,0,PG,1553666443,94,-3.66,152.44,84.41,13.49
406,hollister,1,US,1553666405,87,36.85,-121.4,61.0,2.19
407,newport,0,GB,1553666248,86,51.59,-3.0,39.99,4.7
408,mumford,0,GH,1553666444,92,5.26,-0.76,75.5,3.98
409,notre-dame-de-gravenchon,90,FR,1553666437,93,49.49,0.57,42.01,2.24
410,san francisco,75,US,1553666176,76,37.78,-122.42,57.2,4.7
411,tete,75,MZ,1553662800,94,-16.16,33.59,75.2,1.12
412,sayula,0,MX,1553666445,69,19.88,-103.6,52.91,1.52
413,aykhal,80,RU,1553666446,87,65.95,111.51,25.01,8.01
414,puyo,48,EC,1553666446,92,-1.48,-78.0,59.03,2.53
415,ayan,12,TR,1553666223,46,40.67,33.6,39.41,3.65
416,tamandare,48,BR,1553666447,91,-8.28,-70.75,76.94,4.54
417,kitgum,76,UG,1553666447,84,3.3,32.88,70.82,3.98
418,sultanpur,0,IN,1553666448,80,26.26,82.07,80.54,4.43
419,kholm,36,RU,1553666448,64,57.15,31.18,30.5,14.94
420,taltal,0,CL,1553666449,90,-25.41,-70.49,53.27,2.42
421,pasinler,75,TR,1553664000,100,39.98,41.67,30.2,2.24
422,mildura,0,AU,1553665620,22,-34.18,142.16,79.0,6.93
423,volokonovka,20,RU,1553666450,93,50.48,37.87,37.07,4.54
424,ambilobe,92,MG,1553666450,97,-13.19,49.05,79.64,4.09
425,piranhas,76,BR,1553666451,93,-9.61,-37.76,74.15,3.53
426,hargeysa,40,SO,1553662800,73,9.56,44.06,73.4,16.11
427,chukhloma,80,RU,1553666451,97,58.76,42.68,29.42,7.45
428,margate,0,AU,1553666174,32,-43.03,147.26,68.0,13.87
429,beyneu,92,KZ,1553666358,76,45.32,55.19,42.2,11.25
430,sao felix do xingu,48,BR,1553666264,100,-6.64,-51.99,71.27,2.19
431,los llanos de aridane,0,ES,1553666419,72,28.66,-17.92,60.8,3.36
432,azanka,0,RU,1553666453,75,58.04,64.79,36.44,6.78
433,sao miguel do araguaia,56,BR,1553666453,95,-13.28,-50.16,71.9,6.22
434,konongo,12,GH,1553666453,91,6.62,-1.21,69.56,2.86
435,waingapu,36,ID,1553666454,100,-9.65,120.26,78.11,4.09
436,marzuq,0,YE,1553666454,48,14.4,46.47,74.51,3.76
437,east point,90,US,1553666420,87,33.68,-84.44,53.6,8.68
438,te anau,8,NZ,1553666203,68,-45.41,167.72,50.03,7.23
439,sena madureira,36,BR,1553666455,96,-9.07,-68.66,75.14,2.75
440,itarema,48,BR,1553666456,97,-2.92,-39.92,73.07,3.65
441,mayo,20,CA,1553662800,79,63.59,-135.9,28.4,1.07
442,xuanzhou,68,CN,1553666456,96,30.95,118.78,64.88,5.1
443,kuusamo,0,FI,1553664000,84,65.96,29.19,-0.41,1.12
444,yalta,92,UA,1553666457,96,46.96,37.27,43.01,5.66
445,nome,1,US,1553666126,55,30.04,-94.42,60.8,4.7
446,henties bay,48,NA,1553662931,94,-22.12,14.28,61.0,1.01
447,mount gambier,40,AU,1553662800,63,-37.83,140.78,64.4,5.82
448,constitucion,44,MX,1553666416,31,23.99,-104.67,64.0,3.0
449,gamba,12,CN,1553666460,86,28.28,88.52,17.36,9.8
450,bandarbeyla,76,SO,1553666263,100,9.49,50.81,79.73,3.65
451,thanh hoa,75,VN,1553664600,55,10.21,106.33,91.4,10.29
452,moose factory,20,CA,1553662800,40,51.26,-80.61,33.8,12.75
453,rio claro,0,BR,1553666203,86,-22.41,-47.56,67.04,5.1
454,shitanjing,56,CN,1553666461,19,39.23,106.34,58.67,5.32
455,jacareacanga,8,BR,1553666462,97,-6.22,-57.76,73.79,2.08
456,buraydah,0,SA,1553662800,44,26.33,43.97,60.8,9.17
457,shahrud,8,IR,1553666462,100,36.42,54.97,44.72,3.42
458,changde,44,CN,1553666463,98,29.04,111.68,72.44,3.98
459,tsiroanomandidy,44,MG,1553666463,100,-18.77,46.05,71.18,4.32
460,bilma,0,NE,1553666463,19,18.69,12.92,59.57,7.67
461,solnechnyy,48,RU,1553666464,61,50.72,136.64,24.11,3.76
462,quang ngai,0,VN,1553666325,65,15.12,108.8,83.24,3.2
463,vila,0,IT,1553666464,64,45.18,8.4,48.0,6.93
464,verkhoyansk,0,RU,1553666465,63,67.55,133.39,8.27,3.76
465,castle douglas,80,GB,1553666345,91,54.94,-3.92,46.0,8.9
466,dzaoudzi,0,YT,1553664600,79,-12.79,45.27,86.0,5.82
467,alofi,92,NU,1553662800,94,-19.06,-169.92,77.0,10.29
468,vuktyl,80,RU,1553666284,72,63.86,57.31,32.84,7.67
469,mackenzie,20,CA,1553662800,60,55.34,-123.09,39.2,2.24
470,albanel,5,CA,1553666228,40,48.88,-72.44,15.8,6.93
471,cabo san lucas,75,MX,1553666101,40,22.89,-109.91,71.6,10.29
472,krutinka,0,RU,1553666468,100,56.01,71.51,31.4,8.79
473,port keats,0,AU,1553666468,80,-14.25,129.55,91.79,3.2
474,fuyang,100,CN,1553666356,84,32.89,115.81,62.45,4.21
475,zyryanovsk,68,KZ,1553666469,54,49.74,84.27,41.93,2.75
476,chenghai,75,CN,1553662800,69,23.46,116.77,75.2,2.24
477,rengo,0,CL,1553662800,76,-34.41,-70.86,55.4,4.7
478,lamar,1,US,1553666412,58,38.09,-102.62,57.99,17.22
479,mahdasht,75,IR,1553665942,65,35.73,50.81,48.2,6.93
480,tocopilla,36,CL,1553666289,100,-22.09,-70.2,60.56,1.74
481,nyazepetrovsk,68,RU,1553666471,80,56.06,59.6,34.1,9.8
482,douentza,64,ML,1553666472,70,15.01,-2.95,75.14,3.42
483,aripuana,36,BR,1553666262,96,-9.17,-60.63,74.6,1.97
484,tazovskiy,48,RU,1553666473,97,67.47,78.7,33.38,19.64
485,tabou,0,CI,1553666473,98,4.42,-7.36,83.15,6.78
486,turayf,75,SA,1553662800,81,31.68,38.65,48.2,6.93
487,mareeba,80,AU,1553666020,79,-16.99,145.42,87.01,10.29
488,pacific grove,90,US,1553666473,93,36.62,-121.92,61.0,2.19
489,suba,76,CN,1553666475,48,28.73,103.51,66.23,2.86
490,chebenki,0,RU,1553664600,80,51.93,55.71,35.6,6.71
491,mbandaka,8,CD,1553666476,94,0.05,18.26,76.85,2.42
492,meadow lake,48,CA,1553666476,79,54.13,-108.44,27.8,2.86
493,san cristobal,90,EC,1553665660,93,-0.39,-78.55,59.0,4.7
494,yarmouth,0,GB,1553666344,80,50.71,-1.5,43.0,4.7
495,oranjestad,20,AW,1553662800,83,12.52,-70.03,78.8,12.75
496,salgar,75,CO,1553666276,93,5.96,-75.98,60.8,2.24
497,kijang,0,KR,1553662800,22,35.24,129.21,66.2,18.34
498,eureka,90,US,1553666477,81,40.8,-124.16,53.01,4.7
499,lac-megantic,1,CA,1553666478,84,45.58,-70.88,10.99,2.24
500,kutum,0,SD,1553666466,25,14.2,24.66,65.33,10.8
501,nadym,36,RU,1553666479,96,65.53,72.51,35.27,16.28
502,billings,40,US,1553666105,49,45.79,-108.5,48.2,9.17
503,jawhar,0,IN,1553666480,30,19.91,73.23,97.64,3.76
504,mackay,90,CA,1553662800,100,53.65,-115.58,33.8,4.7
505,hualmay,24,PE,1553666253,94,-11.1,-77.61,63.35,3.76
506,umm lajj,0,SA,1553666481,79,25.02,37.27,68.21,4.65
507,baturaja,44,ID,1553666482,93,-4.12,104.17,84.68,4.65
508,matagami,20,NG,1553666385,29,9.67,8.4,70.82,10.69
509,dawei,44,MM,1553666482,72,14.07,98.19,84.14,2.86
510,vitim,76,RU,1553666483,70,59.44,112.57,24.38,3.87
511,batemans bay,0,AU,1553666450,65,-35.71,150.18,70.0,5.99
512,umba,0,RU,1553666484,80,66.69,34.34,15.29,5.77
513,almeirim,0,PT,1553666185,76,39.21,-8.63,60.01,5.82
514,honiara,32,SB,1553666260,84,-9.43,159.96,81.62,2.86
515,altagracia de orituco,0,VE,1553666484,77,9.86,-66.38,72.08,10.47
516,hrusovany nad jevisovkou,0,CZ,1553666484,80,48.83,16.4,42.01,4.7
517,loa janan,44,ID,1553666485,68,-0.58,117.09,88.01,2.86
518,vagur,92,FO,1553666485,93,61.47,-6.81,46.61,11.25
519,gulabpura,0,IN,1553666486,31,25.91,74.66,88.91,4.54
520,pisco,20,PE,1553662800,82,-13.71,-76.2,68.0,1.12
521,sumbe,48,AO,1553666487,100,-11.2,13.84,78.83,3.65
522,bud,75,NO,1553666484,93,62.91,6.91,42.8,13.87
523,manado,40,ID,1553664600,55,1.49,124.85,89.6,10.29
524,charleston,1,US,1553666410,55,38.35,-81.63,33.8,4.54
525,huancavelica,92,PE,1553666489,100,-12.79,-74.97,41.66,2.53
526,monroe,1,US,1553666457,100,41.91,-83.4,32.0,5.21
527,mount isa,75,AU,1553664600,74,-20.73,139.49,80.6,17.22
528,richards bay,68,ZA,1553666490,94,-28.77,32.06,69.38,1.97
529,ambatondrazaka,0,MG,1553666490,84,-17.82,48.43,75.95,2.98
530,kalispell,1,US,1553666417,80,48.2,-114.32,35.01,3.36
531,westport,88,IE,1553666436,84,53.8,-9.52,50.0,11.99
532,eseka,12,CM,1553666491,93,3.65,10.77,71.72,2.42
533,kieta,68,PG,1553666492,100,-6.22,155.63,78.83,4.21
534,surgut,40,RU,1553664600,74,61.25,73.4,35.6,13.42
535,farmington,40,US,1553666109,21,36.73,-108.21,60.8,8.05
536,nhulunbuy,75,AU,1553664600,79,-12.18,136.78,86.0,8.05
537,den helder,20,NL,1553666489,93,52.96,4.76,45.0,5.82
538,gigmoto,48,PH,1553666493,91,13.78,124.39,81.8,14.72
